{"photos":[{"id":0,"title":"Paris","description":"","latitude":48.85,"longitude":2.35,"url":"http://www.parisbypaige.com/wp-content/uploads/2013/03/paris_night1.jpg"},{"id":1,"title":"Moscow","description":"","latitude":55.75,"longitude":37.62,"url":"http://www.mrwallpaper.com/wallpapers/saint-basils-cathedral-moscow-1600x1200.jpg"},{"id":2,"title":"London","description":"","latitude":51.51,"longitude":-0.13,"url":"https://www.votpusk.ru/story/edit/foto/large/28959.jpg"},{"id":3,"title":"New York","description":"","latitude":40.7143,"longitude":-74.006,"url":"http://www.nydevelopers.com/components/images/shared/nyc_skyline.jpg"},{"id":4,"title":"Beijing","description":"","latitude":39.91,"longitude":116.4,"url":"https://1.bp.blogspot.com/-qFEEgoAJxXk/WPi30XlPzZI/AAAAAAAAH7E/RSM3uMKLgqIK4on1kgMG2QIILRW9fLn1gCEw/s1600/P4120161.JPG"},{"id":5,"title":"Tokyo","description":"","latitude":35.69,"longitude":139.69,"url":"http://www3.jjc.edu/ftp/wdc11/msmith/IMAGES/tokyo%20(9).jpg"},{"id":6,"title":"Roma","description":"","latitude":41.8947,"longitude":12.4839,"url":"https://travelingcanucks.com/wp-content/uploads/2011/03/colosseum-rome.jpg"},{"id":7,"title":"Madrid","description":"","latitude":40.42,"longitude":-3.7,"url":"http://www.pulkovoairport.ru/r/_content/5a4a31f866aec6974c9701d024a433f7/2.jpg"},{"id":8,"title":"Berlin","description":"","latitude":52.5244,"longitude":13.4105,"url":"https://www.st-christophers.co.uk/__data/assets/image/0015/452310/berlin_area_02.jpg"},{"id":9,"title":"Washington","description":"","latitude":47.5001,"longitude":-120.5015,"url":"http://dcparking.org/wp-content/uploads/2012/12/washington-dc-monthly-parking1.jpg"},{"id":10,"title":"Sidney","description":"","latitude":40.2842,"longitude":-84.1556,"url":"http://6star.by/upload/uf/f25/f2569b0ba86eb5a6909e51d4a30aad01.jpg"},{"id":11,"title":"Amsterdam","description":"","latitude":52.37,"longitude":4.89,"url":"http://www.millioni-dorog.com/wp-content/uploads/2014/11/amsterdam1.jpg"}]}